{
  "metadata": {
    "version": "1.1",
    "created_at": "2026-01-10",
    "updated_at": "2026-01-10",
    "description": "Major 765kV, 500kV, 345kV, and 230kV substations in the Eastern Interconnection with EIA-860 generator data",
    "data_sources": ["HIFLD", "EIA-860", "Public utility filings", "Regional transmission plans"],
    "coverage": "Eastern US - comprehensive transmission nodes covering PJM, MISO, SPP, NYISO, ISO-NE, and SERC regions",
    "coordinate_system": "WGS84 (EPSG:4326)",
    "notes": "Phase A - High voltage substations covering major load centers and generation hubs. Generator fuel_type field added per EIA-860 specifications."
  },
  "interconnection": {
    "id": "eastern-interconnection",
    "name": "Eastern Interconnection",
    "type": "Eastern",
    "description": "Eastern Interconnection covering states east of the Rocky Mountains, excluding Texas (ERCOT)"
  },
  "nodes": [
    {
      "id": "node-chicago-electric",
      "name": "Chicago Electric",
      "latitude": 41.8781,
      "longitude": -87.6298,
      "voltage_kv": 345,
      "type": "substation",
      "iso_rto": "PJM",
      "owner": "Commonwealth Edison",
      "data_source": "HIFLD"
    },
    {
      "id": "node-chicago-west",
      "name": "Chicago West",
      "latitude": 41.8819,
      "longitude": -87.8500,
      "voltage_kv": 345,
      "type": "substation",
      "iso_rto": "PJM",
      "owner": "Commonwealth Edison",
      "data_source": "HIFLD"
    },
    {
      "id": "node-zion",
      "name": "Zion",
      "latitude": 42.4461,
      "longitude": -87.8328,
      "voltage_kv": 345,
      "type": "substation",
      "iso_rto": "PJM",
      "owner": "Commonwealth Edison",
      "data_source": "HIFLD"
    },
    {
      "id": "node-braidwood",
      "name": "Braidwood",
      "latitude": 41.2436,
      "longitude": -88.2261,
      "voltage_kv": 345,
      "type": "generator",
      "iso_rto": "PJM",
      "owner": "Constellation Energy",
      "capacity_mw": 2386,
      "fuel_type": "nuclear",
      "data_source": "EIA-860"
    },
    {
      "id": "node-byron",
      "name": "Byron",
      "latitude": 42.0747,
      "longitude": -89.2817,
      "voltage_kv": 345,
      "type": "generator",
      "iso_rto": "PJM",
      "owner": "Constellation Energy",
      "capacity_mw": 2347,
      "fuel_type": "nuclear",
      "data_source": "EIA-860"
    },
    {
      "id": "node-lasalle",
      "name": "LaSalle",
      "latitude": 41.2439,
      "longitude": -88.6703,
      "voltage_kv": 345,
      "type": "generator",
      "iso_rto": "PJM",
      "owner": "Constellation Energy",
      "capacity_mw": 2320,
      "fuel_type": "nuclear",
      "data_source": "EIA-860"
    },
    {
      "id": "node-quad-cities",
      "name": "Quad Cities",
      "latitude": 41.7261,
      "longitude": -90.3369,
      "voltage_kv": 345,
      "type": "generator",
      "iso_rto": "PJM",
      "owner": "Constellation Energy",
      "capacity_mw": 1871,
      "fuel_type": "nuclear",
      "data_source": "EIA-860"
    },
    {
      "id": "node-dresden",
      "name": "Dresden",
      "latitude": 41.3897,
      "longitude": -88.2686,
      "voltage_kv": 345,
      "type": "generator",
      "iso_rto": "PJM",
      "owner": "Constellation Energy",
      "capacity_mw": 1845,
      "fuel_type": "nuclear",
      "data_source": "EIA-860"
    },
    {
      "id": "node-detroit-city",
      "name": "Detroit City",
      "latitude": 42.3314,
      "longitude": -83.0458,
      "voltage_kv": 345,
      "type": "substation",
      "iso_rto": "PJM",
      "owner": "DTE Energy",
      "data_source": "HIFLD"
    },
    {
      "id": "node-fermi",
      "name": "Fermi",
      "latitude": 41.9633,
      "longitude": -83.2578,
      "voltage_kv": 345,
      "type": "generator",
      "iso_rto": "PJM",
      "owner": "DTE Energy",
      "capacity_mw": 1198,
      "fuel_type": "nuclear",
      "data_source": "EIA-860"
    },
    {
      "id": "node-monroe-mi",
      "name": "Monroe Power Plant",
      "latitude": 41.9164,
      "longitude": -83.4336,
      "voltage_kv": 345,
      "type": "generator",
      "iso_rto": "PJM",
      "owner": "DTE Energy",
      "capacity_mw": 3280,
      "fuel_type": "coal",
      "data_source": "EIA-860"
    },
    {
      "id": "node-belle-river",
      "name": "Belle River",
      "latitude": 42.7728,
      "longitude": -82.4944,
      "voltage_kv": 345,
      "type": "generator",
      "iso_rto": "PJM",
      "owner": "DTE Energy",
      "capacity_mw": 1270,
      "fuel_type": "coal",
      "data_source": "EIA-860"
    },
    {
      "id": "node-cleveland-public",
      "name": "Cleveland Public",
      "latitude": 41.4993,
      "longitude": -81.6944,
      "voltage_kv": 345,
      "type": "substation",
      "iso_rto": "PJM",
      "owner": "FirstEnergy",
      "data_source": "HIFLD"
    },
    {
      "id": "node-perry",
      "name": "Perry",
      "latitude": 41.8008,
      "longitude": -81.1439,
      "voltage_kv": 345,
      "type": "generator",
      "iso_rto": "PJM",
      "owner": "Energy Harbor",
      "capacity_mw": 1261,
      "fuel_type": "nuclear",
      "data_source": "EIA-860"
    },
    {
      "id": "node-davis-besse",
      "name": "Davis-Besse",
      "latitude": 41.5972,
      "longitude": -83.0867,
      "voltage_kv": 345,
      "type": "generator",
      "iso_rto": "PJM",
      "owner": "Energy Harbor",
      "capacity_mw": 894,
      "fuel_type": "nuclear",
      "data_source": "EIA-860"
    },
    {
      "id": "node-eastlake",
      "name": "Eastlake",
      "latitude": 41.6681,
      "longitude": -81.4428,
      "voltage_kv": 345,
      "type": "substation",
      "iso_rto": "PJM",
      "owner": "FirstEnergy",
      "data_source": "HIFLD"
    },
    {
      "id": "node-sammis",
      "name": "W.H. Sammis",
      "latitude": 40.5372,
      "longitude": -80.7003,
      "voltage_kv": 345,
      "type": "generator",
      "iso_rto": "PJM",
      "owner": "FirstEnergy",
      "capacity_mw": 2220,
      "fuel_type": "coal",
      "data_source": "EIA-860"
    },
    {
      "id": "node-pittsburgh-central",
      "name": "Pittsburgh Central",
      "latitude": 40.4406,
      "longitude": -79.9959,
      "voltage_kv": 345,
      "type": "substation",
      "iso_rto": "PJM",
      "owner": "Duquesne Light",
      "data_source": "HIFLD"
    },
    {
      "id": "node-beaver-valley",
      "name": "Beaver Valley",
      "latitude": 40.6219,
      "longitude": -80.4339,
      "voltage_kv": 345,
      "type": "generator",
      "iso_rto": "PJM",
      "owner": "Energy Harbor",
      "capacity_mw": 1835,
      "fuel_type": "nuclear",
      "data_source": "EIA-860"
    },
    {
      "id": "node-bruce-mansfield",
      "name": "Bruce Mansfield",
      "latitude": 40.6372,
      "longitude": -80.4206,
      "voltage_kv": 345,
      "type": "generator",
      "iso_rto": "PJM",
      "owner": "FirstEnergy",
      "capacity_mw": 2490,
      "fuel_type": "coal",
      "data_source": "EIA-860"
    },
    {
      "id": "node-homer-city",
      "name": "Homer City",
      "latitude": 40.5114,
      "longitude": -79.2081,
      "voltage_kv": 345,
      "type": "generator",
      "iso_rto": "PJM",
      "owner": "Homer City Generation",
      "capacity_mw": 1884,
      "fuel_type": "coal",
      "data_source": "EIA-860"
    },
    {
      "id": "node-philadelphia-north",
      "name": "Philadelphia North",
      "latitude": 40.0583,
      "longitude": -75.1342,
      "voltage_kv": 500,
      "type": "substation",
      "iso_rto": "PJM",
      "owner": "PECO Energy",
      "data_source": "HIFLD"
    },
    {
      "id": "node-limerick",
      "name": "Limerick",
      "latitude": 40.2236,
      "longitude": -75.5886,
      "voltage_kv": 500,
      "type": "generator",
      "iso_rto": "PJM",
      "owner": "Constellation Energy",
      "capacity_mw": 2317,
      "fuel_type": "nuclear",
      "data_source": "EIA-860"
    },
    {
      "id": "node-peach-bottom",
      "name": "Peach Bottom",
      "latitude": 39.7589,
      "longitude": -76.2686,
      "voltage_kv": 500,
      "type": "generator",
      "iso_rto": "PJM",
      "owner": "Constellation Energy",
      "capacity_mw": 2770,
      "fuel_type": "nuclear",
      "data_source": "EIA-860"
    },
    {
      "id": "node-eddystone",
      "name": "Eddystone",
      "latitude": 39.8594,
      "longitude": -75.3247,
      "voltage_kv": 500,
      "type": "substation",
      "iso_rto": "PJM",
      "owner": "PECO Energy",
      "data_source": "HIFLD"
    },
    {
      "id": "node-keeney",
      "name": "Keeney",
      "latitude": 39.9544,
      "longitude": -75.7164,
      "voltage_kv": 500,
      "type": "substation",
      "iso_rto": "PJM",
      "owner": "PECO Energy",
      "data_source": "HIFLD"
    },
    {
      "id": "node-baltimore-downtown",
      "name": "Baltimore Downtown",
      "latitude": 39.2904,
      "longitude": -76.6122,
      "voltage_kv": 345,
      "type": "substation",
      "iso_rto": "PJM",
      "owner": "Baltimore Gas and Electric",
      "data_source": "HIFLD"
    },
    {
      "id": "node-calvert-cliffs",
      "name": "Calvert Cliffs",
      "latitude": 38.4344,
      "longitude": -76.4419,
      "voltage_kv": 500,
      "type": "generator",
      "iso_rto": "PJM",
      "owner": "Constellation Energy",
      "capacity_mw": 1756,
      "fuel_type": "nuclear",
      "data_source": "EIA-860"
    },
    {
      "id": "node-brandon-shores",
      "name": "Brandon Shores",
      "latitude": 39.2097,
      "longitude": -76.5289,
      "voltage_kv": 500,
      "type": "generator",
      "iso_rto": "PJM",
      "owner": "Talen Energy",
      "capacity_mw": 1370,
      "fuel_type": "coal",
      "data_source": "EIA-860"
    },
    {
      "id": "node-chalk-point",
      "name": "Chalk Point",
      "latitude": 38.5369,
      "longitude": -76.6839,
      "voltage_kv": 500,
      "type": "generator",
      "iso_rto": "PJM",
      "owner": "NRG Energy",
      "capacity_mw": 2465,
      "fuel_type": "natural_gas",
      "data_source": "EIA-860"
    },
    {
      "id": "node-washington-dc",
      "name": "Washington DC",
      "latitude": 38.9072,
      "longitude": -77.0369,
      "voltage_kv": 345,
      "type": "substation",
      "iso_rto": "PJM",
      "owner": "Pepco",
      "data_source": "HIFLD"
    },
    {
      "id": "node-loudoun",
      "name": "Loudoun",
      "latitude": 39.0586,
      "longitude": -77.4711,
      "voltage_kv": 500,
      "type": "substation",
      "iso_rto": "PJM",
      "owner": "Dominion Energy",
      "data_source": "HIFLD"
    },
    {
      "id": "node-north-anna",
      "name": "North Anna",
      "latitude": 38.0606,
      "longitude": -77.7906,
      "voltage_kv": 500,
      "type": "generator",
      "iso_rto": "PJM",
      "owner": "Dominion Energy",
      "capacity_mw": 1892,
      "fuel_type": "nuclear",
      "data_source": "EIA-860"
    },
    {
      "id": "node-surry",
      "name": "Surry",
      "latitude": 37.1656,
      "longitude": -76.6983,
      "voltage_kv": 500,
      "type": "generator",
      "iso_rto": "PJM",
      "owner": "Dominion Energy",
      "capacity_mw": 1676,
      "fuel_type": "nuclear",
      "data_source": "EIA-860"
    },
    {
      "id": "node-st-louis-downtown",
      "name": "St. Louis Downtown",
      "latitude": 38.6270,
      "longitude": -90.1994,
      "voltage_kv": 345,
      "type": "substation",
      "iso_rto": "MISO",
      "owner": "Ameren",
      "data_source": "HIFLD"
    },
    {
      "id": "node-labadie",
      "name": "Labadie",
      "latitude": 38.5392,
      "longitude": -90.7981,
      "voltage_kv": 345,
      "type": "generator",
      "iso_rto": "MISO",
      "owner": "Ameren",
      "capacity_mw": 2372,
      "fuel_type": "coal",
      "data_source": "EIA-860"
    },
    {
      "id": "node-callaway",
      "name": "Callaway",
      "latitude": 38.7614,
      "longitude": -91.7822,
      "voltage_kv": 345,
      "type": "generator",
      "iso_rto": "MISO",
      "owner": "Ameren",
      "capacity_mw": 1236,
      "fuel_type": "nuclear",
      "data_source": "EIA-860"
    },
    {
      "id": "node-rush-island",
      "name": "Rush Island",
      "latitude": 38.1086,
      "longitude": -90.2461,
      "voltage_kv": 345,
      "type": "generator",
      "iso_rto": "MISO",
      "owner": "Ameren",
      "capacity_mw": 1178,
      "fuel_type": "coal",
      "data_source": "EIA-860"
    },
    {
      "id": "node-sioux",
      "name": "Sioux",
      "latitude": 38.7158,
      "longitude": -90.5061,
      "voltage_kv": 345,
      "type": "generator",
      "iso_rto": "MISO",
      "owner": "Ameren",
      "capacity_mw": 1040,
      "fuel_type": "coal",
      "data_source": "EIA-860"
    },
    {
      "id": "node-minneapolis-downtown",
      "name": "Minneapolis Downtown",
      "latitude": 44.9778,
      "longitude": -93.2650,
      "voltage_kv": 345,
      "type": "substation",
      "iso_rto": "MISO",
      "owner": "Xcel Energy",
      "data_source": "HIFLD"
    },
    {
      "id": "node-prairie-island",
      "name": "Prairie Island",
      "latitude": 44.6219,
      "longitude": -92.6322,
      "voltage_kv": 345,
      "type": "generator",
      "iso_rto": "MISO",
      "owner": "Xcel Energy",
      "capacity_mw": 1100,
      "fuel_type": "nuclear",
      "data_source": "EIA-860"
    },
    {
      "id": "node-monticello",
      "name": "Monticello",
      "latitude": 45.3336,
      "longitude": -93.8489,
      "voltage_kv": 345,
      "type": "generator",
      "iso_rto": "MISO",
      "owner": "Xcel Energy",
      "capacity_mw": 671,
      "fuel_type": "nuclear",
      "data_source": "EIA-860"
    },
    {
      "id": "node-sherco",
      "name": "Sherburne County (Sherco)",
      "latitude": 45.3831,
      "longitude": -93.8894,
      "voltage_kv": 345,
      "type": "generator",
      "iso_rto": "MISO",
      "owner": "Xcel Energy",
      "capacity_mw": 2254,
      "fuel_type": "coal",
      "data_source": "EIA-860"
    },
    {
      "id": "node-blue-lake",
      "name": "Blue Lake",
      "latitude": 44.9050,
      "longitude": -93.5275,
      "voltage_kv": 345,
      "type": "substation",
      "iso_rto": "MISO",
      "owner": "Xcel Energy",
      "data_source": "HIFLD"
    },
    {
      "id": "node-indianapolis-downtown",
      "name": "Indianapolis Downtown",
      "latitude": 39.7684,
      "longitude": -86.1581,
      "voltage_kv": 345,
      "type": "substation",
      "iso_rto": "MISO",
      "owner": "AES Indiana",
      "data_source": "HIFLD"
    },
    {
      "id": "node-gibson",
      "name": "Gibson",
      "latitude": 38.3783,
      "longitude": -87.7594,
      "voltage_kv": 345,
      "type": "generator",
      "iso_rto": "MISO",
      "owner": "Duke Energy Indiana",
      "capacity_mw": 3145,
      "fuel_type": "coal",
      "data_source": "EIA-860"
    },
    {
      "id": "node-rockport",
      "name": "Rockport",
      "latitude": 37.8911,
      "longitude": -87.0422,
      "voltage_kv": 765,
      "type": "generator",
      "iso_rto": "MISO",
      "owner": "AEP",
      "capacity_mw": 2600,
      "fuel_type": "coal",
      "data_source": "EIA-860"
    },
    {
      "id": "node-clifty-creek",
      "name": "Clifty Creek",
      "latitude": 38.7375,
      "longitude": -85.4222,
      "voltage_kv": 345,
      "type": "generator",
      "iso_rto": "MISO",
      "owner": "Indiana Kentucky Electric",
      "capacity_mw": 1304,
      "fuel_type": "coal",
      "data_source": "EIA-860"
    },
    {
      "id": "node-cayuga",
      "name": "Cayuga",
      "latitude": 39.9439,
      "longitude": -87.4756,
      "voltage_kv": 345,
      "type": "generator",
      "iso_rto": "MISO",
      "owner": "Duke Energy Indiana",
      "capacity_mw": 1060,
      "fuel_type": "coal",
      "data_source": "EIA-860"
    },
    {
      "id": "node-milwaukee-downtown",
      "name": "Milwaukee Downtown",
      "latitude": 43.0389,
      "longitude": -87.9065,
      "voltage_kv": 345,
      "type": "substation",
      "iso_rto": "MISO",
      "owner": "We Energies",
      "data_source": "HIFLD"
    },
    {
      "id": "node-point-beach",
      "name": "Point Beach",
      "latitude": 44.2814,
      "longitude": -87.5367,
      "voltage_kv": 345,
      "type": "generator",
      "iso_rto": "MISO",
      "owner": "NextEra Energy",
      "capacity_mw": 1200,
      "fuel_type": "nuclear",
      "data_source": "EIA-860"
    },
    {
      "id": "node-oak-creek",
      "name": "Oak Creek",
      "latitude": 42.8833,
      "longitude": -87.8986,
      "voltage_kv": 345,
      "type": "generator",
      "iso_rto": "MISO",
      "owner": "We Energies",
      "capacity_mw": 1135,
      "fuel_type": "coal",
      "data_source": "EIA-860"
    },
    {
      "id": "node-pleasant-prairie",
      "name": "Pleasant Prairie",
      "latitude": 42.5358,
      "longitude": -87.8875,
      "voltage_kv": 345,
      "type": "generator",
      "iso_rto": "MISO",
      "owner": "We Energies",
      "capacity_mw": 1210,
      "fuel_type": "coal",
      "data_source": "EIA-860"
    },
    {
      "id": "node-kansas-city-mo",
      "name": "Kansas City Missouri",
      "latitude": 39.0997,
      "longitude": -94.5786,
      "voltage_kv": 345,
      "type": "substation",
      "iso_rto": "MISO",
      "owner": "Evergy",
      "data_source": "HIFLD"
    },
    {
      "id": "node-iatan",
      "name": "Iatan",
      "latitude": 39.5500,
      "longitude": -94.9314,
      "voltage_kv": 345,
      "type": "generator",
      "iso_rto": "MISO",
      "owner": "Evergy",
      "capacity_mw": 1780,
      "fuel_type": "coal",
      "data_source": "EIA-860"
    },
    {
      "id": "node-wolf-creek",
      "name": "Wolf Creek",
      "latitude": 38.2392,
      "longitude": -95.6875,
      "voltage_kv": 345,
      "type": "generator",
      "iso_rto": "MISO",
      "owner": "Evergy",
      "capacity_mw": 1205,
      "fuel_type": "nuclear",
      "data_source": "EIA-860"
    },
    {
      "id": "node-la-cygne",
      "name": "La Cygne",
      "latitude": 38.3494,
      "longitude": -94.6325,
      "voltage_kv": 345,
      "type": "generator",
      "iso_rto": "MISO",
      "owner": "Evergy",
      "capacity_mw": 1474,
      "fuel_type": "coal",
      "data_source": "EIA-860"
    },
    {
      "id": "node-oklahoma-city",
      "name": "Oklahoma City",
      "latitude": 35.4676,
      "longitude": -97.5164,
      "voltage_kv": 345,
      "type": "substation",
      "iso_rto": "SPP",
      "owner": "OG&E",
      "data_source": "HIFLD"
    },
    {
      "id": "node-sooner",
      "name": "Sooner",
      "latitude": 36.3894,
      "longitude": -97.0631,
      "voltage_kv": 345,
      "type": "generator",
      "iso_rto": "SPP",
      "owner": "OG&E",
      "capacity_mw": 1080,
      "fuel_type": "coal",
      "data_source": "EIA-860"
    },
    {
      "id": "node-muskogee",
      "name": "Muskogee",
      "latitude": 35.7478,
      "longitude": -95.3697,
      "voltage_kv": 345,
      "type": "generator",
      "iso_rto": "SPP",
      "owner": "OG&E",
      "capacity_mw": 1584,
      "fuel_type": "natural_gas",
      "data_source": "EIA-860"
    },
    {
      "id": "node-seminole",
      "name": "Seminole",
      "latitude": 35.2272,
      "longitude": -96.6744,
      "voltage_kv": 345,
      "type": "generator",
      "iso_rto": "SPP",
      "owner": "OG&E",
      "capacity_mw": 1075,
      "fuel_type": "natural_gas",
      "data_source": "EIA-860"
    },
    {
      "id": "node-tulsa-downtown",
      "name": "Tulsa Downtown",
      "latitude": 36.1540,
      "longitude": -95.9928,
      "voltage_kv": 345,
      "type": "substation",
      "iso_rto": "SPP",
      "owner": "Public Service Oklahoma",
      "data_source": "HIFLD"
    },
    {
      "id": "node-northeastern",
      "name": "Northeastern",
      "latitude": 36.2469,
      "longitude": -95.5456,
      "voltage_kv": 345,
      "type": "generator",
      "iso_rto": "SPP",
      "owner": "Public Service Oklahoma",
      "capacity_mw": 950,
      "fuel_type": "natural_gas",
      "data_source": "EIA-860"
    },
    {
      "id": "node-comanche-ok",
      "name": "Comanche",
      "latitude": 34.6928,
      "longitude": -98.0731,
      "voltage_kv": 345,
      "type": "generator",
      "iso_rto": "SPP",
      "owner": "Public Service Oklahoma",
      "capacity_mw": 970,
      "fuel_type": "natural_gas",
      "data_source": "EIA-860"
    },
    {
      "id": "node-dallas-north",
      "name": "Dallas North",
      "latitude": 32.9545,
      "longitude": -96.8200,
      "voltage_kv": 345,
      "type": "substation",
      "iso_rto": "SPP",
      "owner": "Oncor Electric",
      "data_source": "HIFLD"
    },
    {
      "id": "node-new-york-city",
      "name": "New York City",
      "latitude": 40.7128,
      "longitude": -74.0060,
      "voltage_kv": 345,
      "type": "substation",
      "iso_rto": "NYISO",
      "owner": "ConEdison",
      "data_source": "HIFLD"
    },
    {
      "id": "node-indian-point",
      "name": "Indian Point",
      "latitude": 41.2681,
      "longitude": -73.9525,
      "voltage_kv": 345,
      "type": "substation",
      "iso_rto": "NYISO",
      "owner": "ConEdison",
      "data_source": "HIFLD"
    },
    {
      "id": "node-ravenswood",
      "name": "Ravenswood",
      "latitude": 40.7650,
      "longitude": -73.9400,
      "voltage_kv": 345,
      "type": "generator",
      "iso_rto": "NYISO",
      "owner": "Rise Light and Power",
      "capacity_mw": 2480,
      "fuel_type": "natural_gas",
      "data_source": "EIA-860"
    },
    {
      "id": "node-astoria",
      "name": "Astoria",
      "latitude": 40.7753,
      "longitude": -73.9253,
      "voltage_kv": 345,
      "type": "generator",
      "iso_rto": "NYISO",
      "owner": "Astoria Generating",
      "capacity_mw": 1765,
      "fuel_type": "natural_gas",
      "data_source": "EIA-860"
    },
    {
      "id": "node-albany",
      "name": "Albany",
      "latitude": 42.6526,
      "longitude": -73.7562,
      "voltage_kv": 345,
      "type": "substation",
      "iso_rto": "NYISO",
      "owner": "National Grid",
      "data_source": "HIFLD"
    },
    {
      "id": "node-nine-mile-point",
      "name": "Nine Mile Point",
      "latitude": 43.5222,
      "longitude": -76.4103,
      "voltage_kv": 345,
      "type": "generator",
      "iso_rto": "NYISO",
      "owner": "Constellation Energy",
      "capacity_mw": 1937,
      "fuel_type": "nuclear",
      "data_source": "EIA-860"
    },
    {
      "id": "node-fitzpatrick",
      "name": "James A. Fitzpatrick",
      "latitude": 43.5239,
      "longitude": -76.3986,
      "voltage_kv": 345,
      "type": "generator",
      "iso_rto": "NYISO",
      "owner": "Constellation Energy",
      "capacity_mw": 852,
      "fuel_type": "nuclear",
      "data_source": "EIA-860"
    },
    {
      "id": "node-ginna",
      "name": "R.E. Ginna",
      "latitude": 43.2778,
      "longitude": -77.3089,
      "voltage_kv": 345,
      "type": "generator",
      "iso_rto": "NYISO",
      "owner": "Constellation Energy",
      "capacity_mw": 582,
      "fuel_type": "nuclear",
      "data_source": "EIA-860"
    },
    {
      "id": "node-buffalo",
      "name": "Buffalo",
      "latitude": 42.8864,
      "longitude": -78.8784,
      "voltage_kv": 345,
      "type": "substation",
      "iso_rto": "NYISO",
      "owner": "National Grid",
      "data_source": "HIFLD"
    },
    {
      "id": "node-huntley",
      "name": "Huntley",
      "latitude": 42.9233,
      "longitude": -78.8333,
      "voltage_kv": 345,
      "type": "generator",
      "iso_rto": "NYISO",
      "owner": "NRG Energy",
      "capacity_mw": 760,
      "fuel_type": "natural_gas",
      "data_source": "EIA-860"
    },
    {
      "id": "node-niagara",
      "name": "Robert Moses Niagara",
      "latitude": 43.0962,
      "longitude": -79.0377,
      "voltage_kv": 345,
      "type": "generator",
      "iso_rto": "NYISO",
      "owner": "New York Power Authority",
      "capacity_mw": 2525,
      "fuel_type": "hydro",
      "data_source": "EIA-860"
    },
    {
      "id": "node-boston-downtown",
      "name": "Boston Downtown",
      "latitude": 42.3601,
      "longitude": -71.0589,
      "voltage_kv": 345,
      "type": "substation",
      "iso_rto": "ISO-NE",
      "owner": "National Grid",
      "data_source": "HIFLD"
    },
    {
      "id": "node-mystic",
      "name": "Mystic",
      "latitude": 42.3956,
      "longitude": -71.0700,
      "voltage_kv": 345,
      "type": "generator",
      "iso_rto": "ISO-NE",
      "owner": "Constellation Energy",
      "capacity_mw": 1998,
      "fuel_type": "natural_gas",
      "data_source": "EIA-860"
    },
    {
      "id": "node-pilgrim",
      "name": "Pilgrim",
      "latitude": 41.9444,
      "longitude": -70.5778,
      "voltage_kv": 345,
      "type": "substation",
      "iso_rto": "ISO-NE",
      "owner": "Eversource",
      "data_source": "HIFLD"
    },
    {
      "id": "node-seabrook",
      "name": "Seabrook",
      "latitude": 42.8981,
      "longitude": -70.8492,
      "voltage_kv": 345,
      "type": "generator",
      "iso_rto": "ISO-NE",
      "owner": "NextEra Energy",
      "capacity_mw": 1250,
      "fuel_type": "nuclear",
      "data_source": "EIA-860"
    },
    {
      "id": "node-millstone",
      "name": "Millstone",
      "latitude": 41.3086,
      "longitude": -72.1681,
      "voltage_kv": 345,
      "type": "generator",
      "iso_rto": "ISO-NE",
      "owner": "Dominion Energy",
      "capacity_mw": 2088,
      "fuel_type": "nuclear",
      "data_source": "EIA-860"
    },
    {
      "id": "node-hartford",
      "name": "Hartford",
      "latitude": 41.7658,
      "longitude": -72.6734,
      "voltage_kv": 345,
      "type": "substation",
      "iso_rto": "ISO-NE",
      "owner": "Eversource",
      "data_source": "HIFLD"
    },
    {
      "id": "node-middletown",
      "name": "Middletown",
      "latitude": 41.5623,
      "longitude": -72.6506,
      "voltage_kv": 345,
      "type": "generator",
      "iso_rto": "ISO-NE",
      "owner": "NRG Energy",
      "capacity_mw": 770,
      "fuel_type": "natural_gas",
      "data_source": "EIA-860"
    },
    {
      "id": "node-providence",
      "name": "Providence",
      "latitude": 41.8240,
      "longitude": -71.4128,
      "voltage_kv": 345,
      "type": "substation",
      "iso_rto": "ISO-NE",
      "owner": "National Grid",
      "data_source": "HIFLD"
    },
    {
      "id": "node-brayton-point",
      "name": "Brayton Point",
      "latitude": 41.7286,
      "longitude": -71.1853,
      "voltage_kv": 345,
      "type": "substation",
      "iso_rto": "ISO-NE",
      "owner": "National Grid",
      "data_source": "HIFLD"
    },
    {
      "id": "node-manchester-nh",
      "name": "Manchester",
      "latitude": 42.9956,
      "longitude": -71.4548,
      "voltage_kv": 345,
      "type": "substation",
      "iso_rto": "ISO-NE",
      "owner": "Eversource",
      "data_source": "HIFLD"
    },
    {
      "id": "node-vermont-yankee",
      "name": "Vermont Yankee",
      "latitude": 42.7803,
      "longitude": -72.5150,
      "voltage_kv": 345,
      "type": "substation",
      "iso_rto": "ISO-NE",
      "owner": "Green Mountain Power",
      "data_source": "HIFLD"
    },
    {
      "id": "node-atlanta-downtown",
      "name": "Atlanta Downtown",
      "latitude": 33.7490,
      "longitude": -84.3880,
      "voltage_kv": 500,
      "type": "substation",
      "iso_rto": "SERC",
      "owner": "Georgia Power",
      "data_source": "HIFLD"
    },
    {
      "id": "node-vogtle",
      "name": "Vogtle",
      "latitude": 33.1414,
      "longitude": -81.7633,
      "voltage_kv": 500,
      "type": "generator",
      "iso_rto": "SERC",
      "owner": "Georgia Power",
      "capacity_mw": 4540,
      "fuel_type": "nuclear",
      "data_source": "EIA-860"
    },
    {
      "id": "node-hatch",
      "name": "Edwin I. Hatch",
      "latitude": 31.9342,
      "longitude": -82.3447,
      "voltage_kv": 500,
      "type": "generator",
      "iso_rto": "SERC",
      "owner": "Georgia Power",
      "capacity_mw": 1848,
      "fuel_type": "nuclear",
      "data_source": "EIA-860"
    },
    {
      "id": "node-scherer",
      "name": "Robert W. Scherer",
      "latitude": 33.0897,
      "longitude": -83.8039,
      "voltage_kv": 500,
      "type": "generator",
      "iso_rto": "SERC",
      "owner": "Georgia Power",
      "capacity_mw": 3564,
      "fuel_type": "coal",
      "data_source": "EIA-860"
    },
    {
      "id": "node-bowen",
      "name": "Bowen",
      "latitude": 34.1261,
      "longitude": -84.9186,
      "voltage_kv": 500,
      "type": "generator",
      "iso_rto": "SERC",
      "owner": "Georgia Power",
      "capacity_mw": 3160,
      "fuel_type": "coal",
      "data_source": "EIA-860"
    },
    {
      "id": "node-charlotte-downtown",
      "name": "Charlotte Downtown",
      "latitude": 35.2271,
      "longitude": -80.8431,
      "voltage_kv": 500,
      "type": "substation",
      "iso_rto": "SERC",
      "owner": "Duke Energy Carolinas",
      "data_source": "HIFLD"
    },
    {
      "id": "node-mcguire",
      "name": "McGuire",
      "latitude": 35.4322,
      "longitude": -80.9486,
      "voltage_kv": 500,
      "type": "generator",
      "iso_rto": "SERC",
      "owner": "Duke Energy Carolinas",
      "capacity_mw": 2316,
      "fuel_type": "nuclear",
      "data_source": "EIA-860"
    },
    {
      "id": "node-catawba",
      "name": "Catawba",
      "latitude": 35.0531,
      "longitude": -81.0697,
      "voltage_kv": 500,
      "type": "generator",
      "iso_rto": "SERC",
      "owner": "Duke Energy Carolinas",
      "capacity_mw": 2258,
      "fuel_type": "nuclear",
      "data_source": "EIA-860"
    },
    {
      "id": "node-marshall",
      "name": "Marshall",
      "latitude": 35.5922,
      "longitude": -80.9350,
      "voltage_kv": 500,
      "type": "generator",
      "iso_rto": "SERC",
      "owner": "Duke Energy Carolinas",
      "capacity_mw": 2090,
      "fuel_type": "coal",
      "data_source": "EIA-860"
    },
    {
      "id": "node-harris",
      "name": "Shearon Harris",
      "latitude": 35.6331,
      "longitude": -78.9561,
      "voltage_kv": 500,
      "type": "generator",
      "iso_rto": "SERC",
      "owner": "Duke Energy Progress",
      "capacity_mw": 900,
      "fuel_type": "nuclear",
      "data_source": "EIA-860"
    },
    {
      "id": "node-brunswick",
      "name": "Brunswick",
      "latitude": 33.9581,
      "longitude": -78.0103,
      "voltage_kv": 500,
      "type": "generator",
      "iso_rto": "SERC",
      "owner": "Duke Energy Progress",
      "capacity_mw": 1870,
      "fuel_type": "nuclear",
      "data_source": "EIA-860"
    },
    {
      "id": "node-nashville-downtown",
      "name": "Nashville Downtown",
      "latitude": 36.1627,
      "longitude": -86.7816,
      "voltage_kv": 500,
      "type": "substation",
      "iso_rto": "SERC",
      "owner": "Tennessee Valley Authority",
      "data_source": "HIFLD"
    },
    {
      "id": "node-watts-bar",
      "name": "Watts Bar",
      "latitude": 35.6047,
      "longitude": -84.7922,
      "voltage_kv": 500,
      "type": "generator",
      "iso_rto": "SERC",
      "owner": "Tennessee Valley Authority",
      "capacity_mw": 2330,
      "fuel_type": "nuclear",
      "data_source": "EIA-860"
    },
    {
      "id": "node-sequoyah",
      "name": "Sequoyah",
      "latitude": 35.2269,
      "longitude": -85.0883,
      "voltage_kv": 500,
      "type": "generator",
      "iso_rto": "SERC",
      "owner": "Tennessee Valley Authority",
      "capacity_mw": 2317,
      "fuel_type": "nuclear",
      "data_source": "EIA-860"
    },
    {
      "id": "node-browns-ferry",
      "name": "Browns Ferry",
      "latitude": 34.7042,
      "longitude": -87.1186,
      "voltage_kv": 500,
      "type": "generator",
      "iso_rto": "SERC",
      "owner": "Tennessee Valley Authority",
      "capacity_mw": 3309,
      "fuel_type": "nuclear",
      "data_source": "EIA-860"
    },
    {
      "id": "node-cumberland",
      "name": "Cumberland",
      "latitude": 36.3928,
      "longitude": -87.6503,
      "voltage_kv": 500,
      "type": "generator",
      "iso_rto": "SERC",
      "owner": "Tennessee Valley Authority",
      "capacity_mw": 2470,
      "fuel_type": "coal",
      "data_source": "EIA-860"
    },
    {
      "id": "node-paradise",
      "name": "Paradise",
      "latitude": 37.2567,
      "longitude": -87.0128,
      "voltage_kv": 500,
      "type": "generator",
      "iso_rto": "SERC",
      "owner": "Tennessee Valley Authority",
      "capacity_mw": 2558,
      "fuel_type": "coal",
      "data_source": "EIA-860"
    },
    {
      "id": "node-miami-downtown",
      "name": "Miami Downtown",
      "latitude": 25.7617,
      "longitude": -80.1918,
      "voltage_kv": 500,
      "type": "substation",
      "iso_rto": "SERC",
      "owner": "Florida Power & Light",
      "data_source": "HIFLD"
    },
    {
      "id": "node-turkey-point",
      "name": "Turkey Point",
      "latitude": 25.4353,
      "longitude": -80.3311,
      "voltage_kv": 500,
      "type": "generator",
      "iso_rto": "SERC",
      "owner": "Florida Power & Light",
      "capacity_mw": 1594,
      "fuel_type": "nuclear",
      "data_source": "EIA-860"
    },
    {
      "id": "node-st-lucie",
      "name": "St. Lucie",
      "latitude": 27.3486,
      "longitude": -80.2467,
      "voltage_kv": 500,
      "type": "generator",
      "iso_rto": "SERC",
      "owner": "Florida Power & Light",
      "capacity_mw": 1988,
      "fuel_type": "nuclear",
      "data_source": "EIA-860"
    },
    {
      "id": "node-west-county-energy",
      "name": "West County Energy Center",
      "latitude": 26.5889,
      "longitude": -80.4678,
      "voltage_kv": 500,
      "type": "generator",
      "iso_rto": "SERC",
      "owner": "Florida Power & Light",
      "capacity_mw": 3750,
      "fuel_type": "natural_gas",
      "data_source": "EIA-860"
    },
    {
      "id": "node-tampa-downtown",
      "name": "Tampa Downtown",
      "latitude": 27.9506,
      "longitude": -82.4572,
      "voltage_kv": 500,
      "type": "substation",
      "iso_rto": "SERC",
      "owner": "Tampa Electric",
      "data_source": "HIFLD"
    },
    {
      "id": "node-crystal-river",
      "name": "Crystal River",
      "latitude": 28.9636,
      "longitude": -82.6981,
      "voltage_kv": 500,
      "type": "generator",
      "iso_rto": "SERC",
      "owner": "Duke Energy Florida",
      "capacity_mw": 2307,
      "fuel_type": "natural_gas",
      "data_source": "EIA-860"
    },
    {
      "id": "node-polk",
      "name": "Polk",
      "latitude": 27.8639,
      "longitude": -81.9592,
      "voltage_kv": 500,
      "type": "generator",
      "iso_rto": "SERC",
      "owner": "Tampa Electric",
      "capacity_mw": 1240,
      "fuel_type": "natural_gas",
      "data_source": "EIA-860"
    },
    {
      "id": "node-big-bend",
      "name": "Big Bend",
      "latitude": 27.7942,
      "longitude": -82.4075,
      "voltage_kv": 345,
      "type": "generator",
      "iso_rto": "SERC",
      "owner": "Tampa Electric",
      "capacity_mw": 1700,
      "fuel_type": "coal",
      "data_source": "EIA-860"
    },
    {
      "id": "node-jacksonville-downtown",
      "name": "Jacksonville Downtown",
      "latitude": 30.3322,
      "longitude": -81.6557,
      "voltage_kv": 500,
      "type": "substation",
      "iso_rto": "SERC",
      "owner": "JEA",
      "data_source": "HIFLD"
    },
    {
      "id": "node-northside",
      "name": "Northside",
      "latitude": 30.4261,
      "longitude": -81.5700,
      "voltage_kv": 500,
      "type": "generator",
      "iso_rto": "SERC",
      "owner": "JEA",
      "capacity_mw": 1250,
      "fuel_type": "natural_gas",
      "data_source": "EIA-860"
    },
    {
      "id": "node-st-johns-river",
      "name": "St. Johns River Power Park",
      "latitude": 30.4128,
      "longitude": -81.5339,
      "voltage_kv": 500,
      "type": "generator",
      "iso_rto": "SERC",
      "owner": "JEA/Florida Power & Light",
      "capacity_mw": 1240,
      "fuel_type": "coal",
      "data_source": "EIA-860"
    },
    {
      "id": "node-new-orleans-downtown",
      "name": "New Orleans Downtown",
      "latitude": 29.9511,
      "longitude": -90.0715,
      "voltage_kv": 500,
      "type": "substation",
      "iso_rto": "SERC",
      "owner": "Entergy Louisiana",
      "data_source": "HIFLD"
    },
    {
      "id": "node-waterford",
      "name": "Waterford",
      "latitude": 29.9953,
      "longitude": -90.4725,
      "voltage_kv": 500,
      "type": "generator",
      "iso_rto": "SERC",
      "owner": "Entergy Louisiana",
      "capacity_mw": 1165,
      "fuel_type": "nuclear",
      "data_source": "EIA-860"
    },
    {
      "id": "node-river-bend",
      "name": "River Bend",
      "latitude": 30.7572,
      "longitude": -91.3336,
      "voltage_kv": 500,
      "type": "generator",
      "iso_rto": "SERC",
      "owner": "Entergy Louisiana",
      "capacity_mw": 974,
      "fuel_type": "nuclear",
      "data_source": "EIA-860"
    },
    {
      "id": "node-grand-gulf",
      "name": "Grand Gulf",
      "latitude": 32.0081,
      "longitude": -91.0478,
      "voltage_kv": 500,
      "type": "generator",
      "iso_rto": "SERC",
      "owner": "Entergy",
      "capacity_mw": 1433,
      "fuel_type": "nuclear",
      "data_source": "EIA-860"
    },
    {
      "id": "node-little-gypsy",
      "name": "Little Gypsy",
      "latitude": 30.0033,
      "longitude": -90.4256,
      "voltage_kv": 500,
      "type": "generator",
      "iso_rto": "SERC",
      "owner": "Entergy Louisiana",
      "capacity_mw": 1026,
      "fuel_type": "natural_gas",
      "data_source": "EIA-860"
    },
    {
      "id": "node-keystone",
      "name": "Keystone",
      "latitude": 40.6611,
      "longitude": -79.3353,
      "voltage_kv": 500,
      "type": "generator",
      "iso_rto": "PJM",
      "owner": "GenOn",
      "capacity_mw": 1711,
      "fuel_type": "coal",
      "data_source": "EIA-860"
    },
    {
      "id": "node-conemaugh",
      "name": "Conemaugh",
      "latitude": 40.4219,
      "longitude": -79.0508,
      "voltage_kv": 500,
      "type": "generator",
      "iso_rto": "PJM",
      "owner": "GenOn",
      "capacity_mw": 1711,
      "fuel_type": "coal",
      "data_source": "EIA-860"
    },
    {
      "id": "node-amos",
      "name": "John E. Amos",
      "latitude": 38.5003,
      "longitude": -81.8208,
      "voltage_kv": 765,
      "type": "generator",
      "iso_rto": "PJM",
      "owner": "AEP",
      "capacity_mw": 2933,
      "fuel_type": "coal",
      "data_source": "EIA-860"
    },
    {
      "id": "node-mountaineer",
      "name": "Mountaineer",
      "latitude": 38.9544,
      "longitude": -81.9561,
      "voltage_kv": 500,
      "type": "generator",
      "iso_rto": "PJM",
      "owner": "AEP",
      "capacity_mw": 1300,
      "fuel_type": "coal",
      "data_source": "EIA-860"
    },
    {
      "id": "node-gavin",
      "name": "General James M. Gavin",
      "latitude": 38.9861,
      "longitude": -82.1067,
      "voltage_kv": 765,
      "type": "generator",
      "iso_rto": "PJM",
      "owner": "AEP",
      "capacity_mw": 2600,
      "fuel_type": "coal",
      "data_source": "EIA-860"
    },
    {
      "id": "node-cardinal",
      "name": "Cardinal",
      "latitude": 40.0883,
      "longitude": -80.8422,
      "voltage_kv": 345,
      "type": "generator",
      "iso_rto": "PJM",
      "owner": "AEP",
      "capacity_mw": 1800,
      "fuel_type": "coal",
      "data_source": "EIA-860"
    },
    {
      "id": "node-mitchell",
      "name": "Mitchell",
      "latitude": 39.9639,
      "longitude": -80.6164,
      "voltage_kv": 345,
      "type": "generator",
      "iso_rto": "PJM",
      "owner": "AEP",
      "capacity_mw": 1560,
      "fuel_type": "coal",
      "data_source": "EIA-860"
    },
    {
      "id": "node-susquehanna",
      "name": "Susquehanna",
      "latitude": 41.0903,
      "longitude": -76.1467,
      "voltage_kv": 500,
      "type": "generator",
      "iso_rto": "PJM",
      "owner": "Talen Energy",
      "capacity_mw": 2658,
      "fuel_type": "nuclear",
      "data_source": "EIA-860"
    },
    {
      "id": "node-three-mile-island",
      "name": "Three Mile Island",
      "latitude": 40.1531,
      "longitude": -76.7247,
      "voltage_kv": 500,
      "type": "substation",
      "iso_rto": "PJM",
      "owner": "Constellation Energy",
      "data_source": "HIFLD"
    },
    {
      "id": "node-salem",
      "name": "Salem",
      "latitude": 39.4625,
      "longitude": -75.5356,
      "voltage_kv": 500,
      "type": "generator",
      "iso_rto": "PJM",
      "owner": "PSEG Nuclear",
      "capacity_mw": 2346,
      "fuel_type": "nuclear",
      "data_source": "EIA-860"
    },
    {
      "id": "node-hope-creek",
      "name": "Hope Creek",
      "latitude": 39.4667,
      "longitude": -75.5392,
      "voltage_kv": 500,
      "type": "generator",
      "iso_rto": "PJM",
      "owner": "PSEG Nuclear",
      "capacity_mw": 1240,
      "fuel_type": "nuclear",
      "data_source": "EIA-860"
    },
    {
      "id": "node-oyster-creek",
      "name": "Oyster Creek",
      "latitude": 39.8139,
      "longitude": -74.2064,
      "voltage_kv": 500,
      "type": "substation",
      "iso_rto": "PJM",
      "owner": "Holtec",
      "data_source": "HIFLD"
    },
    {
      "id": "node-newark-nj",
      "name": "Newark",
      "latitude": 40.7357,
      "longitude": -74.1724,
      "voltage_kv": 345,
      "type": "substation",
      "iso_rto": "PJM",
      "owner": "PSE&G",
      "data_source": "HIFLD"
    },
    {
      "id": "node-coal-creek",
      "name": "Coal Creek",
      "latitude": 47.2500,
      "longitude": -101.3833,
      "voltage_kv": 500,
      "type": "generator",
      "iso_rto": "MISO",
      "owner": "Great River Energy",
      "capacity_mw": 1100,
      "fuel_type": "coal",
      "data_source": "EIA-860"
    },
    {
      "id": "node-schahfer",
      "name": "Schahfer",
      "latitude": 41.2206,
      "longitude": -87.1506,
      "voltage_kv": 345,
      "type": "generator",
      "iso_rto": "MISO",
      "owner": "NIPSCO",
      "capacity_mw": 1780,
      "fuel_type": "coal",
      "data_source": "EIA-860"
    },
    {
      "id": "node-michigan-city",
      "name": "Michigan City",
      "latitude": 41.7111,
      "longitude": -86.8900,
      "voltage_kv": 345,
      "type": "generator",
      "iso_rto": "MISO",
      "owner": "NIPSCO",
      "capacity_mw": 469,
      "fuel_type": "coal",
      "data_source": "EIA-860"
    },
    {
      "id": "node-cook",
      "name": "Donald C. Cook",
      "latitude": 41.9750,
      "longitude": -86.5625,
      "voltage_kv": 345,
      "type": "generator",
      "iso_rto": "MISO",
      "owner": "Indiana Michigan Power",
      "capacity_mw": 2069,
      "fuel_type": "nuclear",
      "data_source": "EIA-860"
    },
    {
      "id": "node-palisades",
      "name": "Palisades",
      "latitude": 42.3222,
      "longitude": -86.3128,
      "voltage_kv": 345,
      "type": "generator",
      "iso_rto": "MISO",
      "owner": "Holtec",
      "capacity_mw": 805,
      "fuel_type": "nuclear",
      "data_source": "EIA-860"
    },
    {
      "id": "node-kewaunee",
      "name": "Kewaunee",
      "latitude": 44.3431,
      "longitude": -87.5367,
      "voltage_kv": 345,
      "type": "substation",
      "iso_rto": "MISO",
      "owner": "Wisconsin Public Service",
      "data_source": "HIFLD"
    },
    {
      "id": "node-weston",
      "name": "Weston",
      "latitude": 44.9256,
      "longitude": -89.6264,
      "voltage_kv": 345,
      "type": "generator",
      "iso_rto": "MISO",
      "owner": "Wisconsin Public Service",
      "capacity_mw": 1032,
      "fuel_type": "coal",
      "data_source": "EIA-860"
    },
    {
      "id": "node-duane-arnold",
      "name": "Duane Arnold",
      "latitude": 42.1006,
      "longitude": -91.7756,
      "voltage_kv": 345,
      "type": "substation",
      "iso_rto": "MISO",
      "owner": "NextEra Energy",
      "data_source": "HIFLD"
    },
    {
      "id": "node-louisa",
      "name": "Louisa",
      "latitude": 41.2894,
      "longitude": -91.2219,
      "voltage_kv": 345,
      "type": "generator",
      "iso_rto": "MISO",
      "owner": "MidAmerican Energy",
      "capacity_mw": 715,
      "fuel_type": "coal",
      "data_source": "EIA-860"
    },
    {
      "id": "node-newton",
      "name": "Newton",
      "latitude": 41.6961,
      "longitude": -93.0483,
      "voltage_kv": 345,
      "type": "generator",
      "iso_rto": "MISO",
      "owner": "MidAmerican Energy",
      "capacity_mw": 1780,
      "fuel_type": "coal",
      "data_source": "EIA-860"
    },
    {
      "id": "node-council-bluffs",
      "name": "Council Bluffs",
      "latitude": 41.2619,
      "longitude": -95.8608,
      "voltage_kv": 345,
      "type": "generator",
      "iso_rto": "MISO",
      "owner": "MidAmerican Energy",
      "capacity_mw": 893,
      "fuel_type": "coal",
      "data_source": "EIA-860"
    },
    {
      "id": "node-cooper",
      "name": "Cooper",
      "latitude": 40.3614,
      "longitude": -95.6414,
      "voltage_kv": 345,
      "type": "generator",
      "iso_rto": "SPP",
      "owner": "Nebraska Public Power District",
      "capacity_mw": 801,
      "fuel_type": "nuclear",
      "data_source": "EIA-860"
    },
    {
      "id": "node-gerald-gentleman",
      "name": "Gerald Gentleman",
      "latitude": 41.1214,
      "longitude": -101.3581,
      "voltage_kv": 345,
      "type": "generator",
      "iso_rto": "SPP",
      "owner": "Nebraska Public Power District",
      "capacity_mw": 1365,
      "fuel_type": "coal",
      "data_source": "EIA-860"
    },
    {
      "id": "node-jeffrey",
      "name": "Jeffrey Energy Center",
      "latitude": 39.2842,
      "longitude": -96.1108,
      "voltage_kv": 345,
      "type": "generator",
      "iso_rto": "SPP",
      "owner": "Evergy",
      "capacity_mw": 2158,
      "fuel_type": "coal",
      "data_source": "EIA-860"
    },
    {
      "id": "node-flint-hills",
      "name": "Flint Hills",
      "latitude": 38.4625,
      "longitude": -96.5631,
      "voltage_kv": 345,
      "type": "generator",
      "iso_rto": "SPP",
      "owner": "Empire District Electric",
      "capacity_mw": 680,
      "fuel_type": "wind",
      "data_source": "EIA-860"
    },
    {
      "id": "node-welsh",
      "name": "Welsh",
      "latitude": 33.0417,
      "longitude": -94.8750,
      "voltage_kv": 345,
      "type": "generator",
      "iso_rto": "SPP",
      "owner": "AEP",
      "capacity_mw": 1665,
      "fuel_type": "coal",
      "data_source": "EIA-860"
    },
    {
      "id": "node-pirkey",
      "name": "Pirkey",
      "latitude": 32.5458,
      "longitude": -94.5136,
      "voltage_kv": 345,
      "type": "generator",
      "iso_rto": "SPP",
      "owner": "AEP SWEPCO",
      "capacity_mw": 721,
      "fuel_type": "lignite",
      "data_source": "EIA-860"
    },
    {
      "id": "node-flint-creek",
      "name": "Flint Creek",
      "latitude": 36.2564,
      "longitude": -94.5189,
      "voltage_kv": 345,
      "type": "generator",
      "iso_rto": "SPP",
      "owner": "AEP SWEPCO",
      "capacity_mw": 558,
      "fuel_type": "coal",
      "data_source": "EIA-860"
    },
    {
      "id": "node-white-bluff",
      "name": "White Bluff",
      "latitude": 34.6167,
      "longitude": -92.1500,
      "voltage_kv": 500,
      "type": "generator",
      "iso_rto": "SPP",
      "owner": "Entergy Arkansas",
      "capacity_mw": 1636,
      "fuel_type": "coal",
      "data_source": "EIA-860"
    },
    {
      "id": "node-independence",
      "name": "Independence",
      "latitude": 35.8461,
      "longitude": -91.6136,
      "voltage_kv": 500,
      "type": "generator",
      "iso_rto": "SERC",
      "owner": "Entergy Arkansas",
      "capacity_mw": 1678,
      "fuel_type": "coal",
      "data_source": "EIA-860"
    },
    {
      "id": "node-arkansas-nuclear-one",
      "name": "Arkansas Nuclear One",
      "latitude": 35.3103,
      "longitude": -93.2308,
      "voltage_kv": 500,
      "type": "generator",
      "iso_rto": "SPP",
      "owner": "Entergy Arkansas",
      "capacity_mw": 1791,
      "fuel_type": "nuclear",
      "data_source": "EIA-860"
    },
    {
      "id": "node-farley",
      "name": "Joseph M. Farley",
      "latitude": 31.2228,
      "longitude": -85.1108,
      "voltage_kv": 500,
      "type": "generator",
      "iso_rto": "SERC",
      "owner": "Southern Nuclear",
      "capacity_mw": 1747,
      "fuel_type": "nuclear",
      "data_source": "EIA-860"
    },
    {
      "id": "node-miller",
      "name": "Miller",
      "latitude": 33.2583,
      "longitude": -86.8992,
      "voltage_kv": 500,
      "type": "generator",
      "iso_rto": "SERC",
      "owner": "Alabama Power",
      "capacity_mw": 2640,
      "fuel_type": "coal",
      "data_source": "EIA-860"
    },
    {
      "id": "node-barry",
      "name": "Barry",
      "latitude": 31.0231,
      "longitude": -88.0108,
      "voltage_kv": 500,
      "type": "generator",
      "iso_rto": "SERC",
      "owner": "Alabama Power",
      "capacity_mw": 1542,
      "fuel_type": "natural_gas",
      "data_source": "EIA-860"
    },
    {
      "id": "node-daniel",
      "name": "Daniel",
      "latitude": 30.4472,
      "longitude": -88.4917,
      "voltage_kv": 500,
      "type": "generator",
      "iso_rto": "SERC",
      "owner": "Mississippi Power",
      "capacity_mw": 1000,
      "fuel_type": "coal",
      "data_source": "EIA-860"
    },
    {
      "id": "node-oconee",
      "name": "Oconee",
      "latitude": 34.7922,
      "longitude": -82.8981,
      "voltage_kv": 500,
      "type": "generator",
      "iso_rto": "SERC",
      "owner": "Duke Energy Carolinas",
      "capacity_mw": 2538,
      "fuel_type": "nuclear",
      "data_source": "EIA-860"
    },
    {
      "id": "node-summer",
      "name": "V.C. Summer",
      "latitude": 34.2958,
      "longitude": -81.3194,
      "voltage_kv": 500,
      "type": "generator",
      "iso_rto": "SERC",
      "owner": "Dominion Energy",
      "capacity_mw": 1030,
      "fuel_type": "nuclear",
      "data_source": "EIA-860"
    },
    {
      "id": "node-robinson",
      "name": "H.B. Robinson",
      "latitude": 34.4017,
      "longitude": -80.1575,
      "voltage_kv": 500,
      "type": "generator",
      "iso_rto": "SERC",
      "owner": "Duke Energy Progress",
      "capacity_mw": 741,
      "fuel_type": "nuclear",
      "data_source": "EIA-860"
    },
    {
      "id": "node-portsmouth",
      "name": "Portsmouth",
      "latitude": 36.8469,
      "longitude": -76.2986,
      "voltage_kv": 500,
      "type": "substation",
      "iso_rto": "PJM",
      "owner": "Dominion Energy",
      "data_source": "HIFLD"
    },
    {
      "id": "node-richmond",
      "name": "Richmond",
      "latitude": 37.5407,
      "longitude": -77.4360,
      "voltage_kv": 500,
      "type": "substation",
      "iso_rto": "PJM",
      "owner": "Dominion Energy",
      "data_source": "HIFLD"
    },
    {
      "id": "node-norfolk",
      "name": "Norfolk",
      "latitude": 36.8508,
      "longitude": -76.2859,
      "voltage_kv": 230,
      "type": "substation",
      "iso_rto": "PJM",
      "owner": "Dominion Energy",
      "data_source": "HIFLD"
    },
    {
      "id": "node-roanoke",
      "name": "Roanoke",
      "latitude": 37.2709,
      "longitude": -79.9414,
      "voltage_kv": 345,
      "type": "substation",
      "iso_rto": "PJM",
      "owner": "AEP",
      "data_source": "HIFLD"
    },
    {
      "id": "node-cloverdale",
      "name": "Cloverdale",
      "latitude": 37.3650,
      "longitude": -79.9047,
      "voltage_kv": 500,
      "type": "substation",
      "iso_rto": "PJM",
      "owner": "AEP",
      "data_source": "HIFLD"
    },
    {
      "id": "node-lexington",
      "name": "Lexington",
      "latitude": 38.0406,
      "longitude": -84.5037,
      "voltage_kv": 345,
      "type": "substation",
      "iso_rto": "SERC",
      "owner": "Kentucky Utilities",
      "data_source": "HIFLD"
    },
    {
      "id": "node-ghent",
      "name": "Ghent",
      "latitude": 38.7539,
      "longitude": -85.2269,
      "voltage_kv": 345,
      "type": "generator",
      "iso_rto": "SERC",
      "owner": "Kentucky Utilities",
      "capacity_mw": 2226,
      "fuel_type": "coal",
      "data_source": "EIA-860"
    },
    {
      "id": "node-mill-creek",
      "name": "Mill Creek",
      "latitude": 38.0756,
      "longitude": -85.8733,
      "voltage_kv": 345,
      "type": "generator",
      "iso_rto": "SERC",
      "owner": "Louisville Gas & Electric",
      "capacity_mw": 1472,
      "fuel_type": "coal",
      "data_source": "EIA-860"
    },
    {
      "id": "node-trimble-county",
      "name": "Trimble County",
      "latitude": 38.6211,
      "longitude": -85.3478,
      "voltage_kv": 345,
      "type": "generator",
      "iso_rto": "SERC",
      "owner": "Louisville Gas & Electric",
      "capacity_mw": 1020,
      "fuel_type": "coal",
      "data_source": "EIA-860"
    },
    {
      "id": "node-joppa",
      "name": "Joppa",
      "latitude": 37.2061,
      "longitude": -88.8517,
      "voltage_kv": 345,
      "type": "generator",
      "iso_rto": "MISO",
      "owner": "Vistra",
      "capacity_mw": 1002,
      "fuel_type": "coal",
      "data_source": "EIA-860"
    },
    {
      "id": "node-newton-il",
      "name": "Newton (IL)",
      "latitude": 38.9861,
      "longitude": -88.1717,
      "voltage_kv": 345,
      "type": "generator",
      "iso_rto": "MISO",
      "owner": "Ameren",
      "capacity_mw": 600,
      "fuel_type": "coal",
      "data_source": "EIA-860"
    },
    {
      "id": "node-baldwin",
      "name": "Baldwin",
      "latitude": 38.2053,
      "longitude": -89.8525,
      "voltage_kv": 345,
      "type": "generator",
      "iso_rto": "MISO",
      "owner": "Dynegy",
      "capacity_mw": 1800,
      "fuel_type": "coal",
      "data_source": "EIA-860"
    },
    {
      "id": "node-quad-cities-sub",
      "name": "Quad Cities Substation",
      "latitude": 41.5111,
      "longitude": -90.5711,
      "voltage_kv": 345,
      "type": "substation",
      "iso_rto": "MISO",
      "owner": "MidAmerican Energy",
      "data_source": "HIFLD"
    },
    {
      "id": "node-springfield-il",
      "name": "Springfield",
      "latitude": 39.7817,
      "longitude": -89.6501,
      "voltage_kv": 345,
      "type": "substation",
      "iso_rto": "MISO",
      "owner": "Ameren",
      "data_source": "HIFLD"
    },
    {
      "id": "node-bath-county",
      "name": "Bath County Pumped Storage",
      "latitude": 38.2189,
      "longitude": -79.8008,
      "voltage_kv": 500,
      "type": "generator",
      "iso_rto": "PJM",
      "owner": "Dominion Energy",
      "capacity_mw": 3003,
      "fuel_type": "pumped_hydro",
      "data_source": "EIA-860"
    },
    {
      "id": "node-ludington",
      "name": "Ludington Pumped Storage",
      "latitude": 43.8939,
      "longitude": -86.4464,
      "voltage_kv": 345,
      "type": "generator",
      "iso_rto": "MISO",
      "owner": "Consumers Energy/DTE Energy",
      "capacity_mw": 1872,
      "fuel_type": "pumped_hydro",
      "data_source": "EIA-860"
    },
    {
      "id": "node-raccoon-mountain",
      "name": "Raccoon Mountain Pumped Storage",
      "latitude": 35.0583,
      "longitude": -85.3953,
      "voltage_kv": 500,
      "type": "generator",
      "iso_rto": "SERC",
      "owner": "Tennessee Valley Authority",
      "capacity_mw": 1652,
      "fuel_type": "pumped_hydro",
      "data_source": "EIA-860"
    },
    {
      "id": "node-fowler-ridge",
      "name": "Fowler Ridge Wind Farm",
      "latitude": 40.5189,
      "longitude": -87.3364,
      "voltage_kv": 345,
      "type": "generator",
      "iso_rto": "MISO",
      "owner": "BP Wind Energy/Dominion Energy",
      "capacity_mw": 600,
      "fuel_type": "wind",
      "data_source": "EIA-860"
    },
    {
      "id": "node-meadow-lake",
      "name": "Meadow Lake Wind Farm",
      "latitude": 40.6858,
      "longitude": -87.0475,
      "voltage_kv": 345,
      "type": "generator",
      "iso_rto": "MISO",
      "owner": "EDP Renewables",
      "capacity_mw": 801,
      "fuel_type": "wind",
      "data_source": "EIA-860"
    },
    {
      "id": "node-kammer",
      "name": "Kammer",
      "latitude": 39.8825,
      "longitude": -80.7608,
      "voltage_kv": 765,
      "type": "substation",
      "iso_rto": "PJM",
      "owner": "AEP",
      "data_source": "HIFLD"
    },
    {
      "id": "node-marysville",
      "name": "Marysville",
      "latitude": 40.2364,
      "longitude": -83.3672,
      "voltage_kv": 765,
      "type": "substation",
      "iso_rto": "PJM",
      "owner": "AEP",
      "data_source": "HIFLD"
    },
    {
      "id": "node-sullivan",
      "name": "Sullivan",
      "latitude": 39.0947,
      "longitude": -87.4067,
      "voltage_kv": 765,
      "type": "substation",
      "iso_rto": "MISO",
      "owner": "AEP",
      "data_source": "HIFLD"
    }
  ]
}
